{
  "lists": [
    {
      "name": "Amrit Science Campus",
      "address": "Thamel, Kathmandu",
      "phone": "9849665172",
      "website": "http://www.amritcampus.com.np/ ",
      "long": 0.0,
      "lat": 0.0
    },
    {
      "name": "Aberdeen International College",
      "address": "Jawalakhel,Lalitpur",
      "phone": "015530889",
      "website": "http://www.aberdeen.edu.np/ ",
      "long": 0.0,
      "lat": 0.0
    },
    {
      "name": "Academia Int'l College",
      "address": "Gwarko Chowk,Lalitpur",
      "phone": "015543037",
      "website": "http://www.academianepal.com/ ",
      "long": 0.0,
      "lat": 0.0
    },
    {
      "name": "Aims College",
      "address": "Bhanu tole,College road,Biratnagar",
      "phone": "021537060",
      "website": "null",
      "long": 0.0,
      "lat": 0.0
    },
    {
      "name": "Ambikeshwori Campus",
      "address": "Dang",
      "phone": "null",
      "website": "null",
      "long": 0.0,
      "lat": 0.0
    },
    {
      "name": "Ambition College",
      "address": "Old Baneshwor,Kathmandu",
      "phone": "014463079",
      "website": "http://www.ambition.edu.np/ ",
      "long": 0.0,
      "lat": 0.0
    },
    {
      "name": "Asian College of Higher Studies",
      "address": "Near Kumari hall,Dhobidhara,Kathmandu",
      "phone": "014438566",
      "website": "http://www.achsnepal.com/ ",
      "long": 0.0,
      "lat": 0.0
    },
    {
      "name": "Asian School of management and technology",
      "address": "Gongabu,kathmandu",
      "phone": "014354887",
      "website": "http://www.asm.edu.np/ ",
      "long": 0.0,
      "lat": 0.0
    },
    {
      "name": "Banke Bageshwori College",
      "address": "Opp. to Batika Hotel,Surkhet road,Nepalgunj",
      "phone": "081521261",
      "website": "null",
      "long": 0.0,
      "lat": 0.0
    },
    {
      "name": "Birat Kshitiz College",
      "address": "Pragati tole,Shankarpur,Morang",
      "phone": "021528780",
      "website": "http://www.kshitizbrt.com/ ",
      "long": 0.0,
      "lat": 0.0
    },
    {
      "name": "Birat Multiple College",
      "address": "Morang",
      "phone": "9852030970",
      "website": "null",
      "long": 0.0,
      "lat": 0.0
    },
    {
      "name": "Birendra Memorial College",
      "address": "Bhupi marg,Dharan",
      "phone": "025-527320",
      "website": "null",
      "long": 0.0,
      "lat": 0.0
    },
    {
      "name": "Birendra Multiple Campus",
      "address": "Bharatpur height,Chitwan",
      "phone": "056520253",
      "website": "http://www.bmc.edu.np/ ",
      "long": 0.0,
      "lat": 0.0
    },
    {
      "name": "Butwal Multiple Campus",
      "address": "Golpark,Butwal",
      "phone": "071542834",
      "website": "null",
      "long": 0.0,
      "lat": 0.0
    },
    {
      "name": "College of Applied Business",
      "address": "Gangahiti,Dhobikhola,Kathmandu",
      "phone": "014-462736",
      "website": "http:// http://www.cab.edu.np/ ",
      "long": 0.0,
      "lat": 0.0
    },
    {
      "name": "Deerwalk Institute of Technology",
      "address": "Jaya Bageshwori,Kathmandu",
      "phone": "014485424",
      "website": "http://www.dwit.edu.np/ ",
      "long": 0.0,
      "lat": 0.0
    },
    {
      "name": "Hari Khetan Multiple Campus",
      "address": "Adarshanagar,Birgunj",
      "phone": "051-522961",
      "website": " http://www.hkmc.edu.np/ ",
      "long": 0.0,
      "lat": 0.0
    },
    {
      "name": "Hetauda City College",
      "address": "Kantirajpath,Hetauda",
      "phone": "057-526660",
      "website": "null",
      "long": 0.0,
      "lat": 0.0
    },
    {
      "name": "HenryFord Int'l College",
      "address": "Kalankisthan,Kathmandu",
      "phone": "014-275203",
      "website": " http://henryford.edu.np/ ",
      "long": 0.0,
      "lat": 0.0
    },
    {
      "name": "Himalaya College of Engineering",
      "address": "Chyasal-9,Lalitpur",
      "phone": "015540555",
      "website": "http://www.hcoe.edu.np/ ",
      "long": 0.0,
      "lat": 0.0
    },
    {
      "name": "Himalaya Darshan College",
      "address": "Neel Sadan,Biratnagar",
      "phone": "021-531357",
      "website": "null",
      "long": 0.0,
      "lat": 0.0
    },
    {
      "name": "Indreni College",
      "address": "Bharatpur-11,Chitwan",
      "phone": "056525246",
      "website": "http://www.indrenicollege.edu.np/ ",
      "long": 0.0,
      "lat": 0.0
    },
    {
      "name": "Kathford Int'l college of Engineering and Management",
      "address": "Balkumari chowk,Ringroad,lalitpur",
      "phone": "015006446",
      "website": "http://www.kathford.edu.np/ ",
      "long": 0.0,
      "lat": 0.0
    },
    {
      "name": "Kathmandu BernHardt College",
      "address": "Bafal,Kalanki,Kathmandu",
      "phone": "014672506",
      "website": "http://www.kathbernhardt.edu.np/ ",
      "long": 0.0,
      "lat": 0.0
    },
    {
      "name": "Lumbini ICT College",
      "address": "Gaindakot,Nawalparasi",
      "phone": "056502188",
      "website": "http://www.lumbinivocationalÂ­college.edu.np/ ",
      "long": 0.0,
      "lat": 0.0
    },
    {
      "name": "Madan Bhandari Memorial College",
      "address": "New Baneshwor,Kathmandu",
      "phone": "014-464775",
      "website": "http://www.mbmc.edu.np/ ",
      "long": 0.0,
      "lat": 0.0
    },
    {
      "name": "Mahendra Morang Adarsha Multiple Campus",
      "address": "College road,Biratnagar",
      "phone": "021522916",
      "website": "null",
      "long": 0.0,
      "lat": 0.0
    },
    {
      "name": "Mission College",
      "address": "Saptari",
      "phone": "031-521100",
      "website": "http://www.missioncollege.edu.np/ ",
      "long": 0.0,
      "lat": 0.0
    },
    {
      "name": "Mount Annapurna Campus",
      "address": "Kaski",
      "phone": "061-532636",
      "website": "null",
      "long": 0.0,
      "lat": 0.0
    },
    {
      "name": "Nagarjuna College of IT",
      "address": "Opp. to Pulchowk Campus,pulchowk,Lalitpur",
      "phone": "015010670",
      "website": "http://www.nagarjuna.edu.np/ ",
      "long": 0.0,
      "lat": 0.0
    },
    {
      "name": "National College of Computer Studies",
      "address": "Paknajol,Kathmandu",
      "phone": "014-251711",
      "website": " http://www.nccs.edu.np/ ",
      "long": 0.0,
      "lat": 0.0
    },
    {
      "name": "National Infotech College",
      "address": "Bypass road,Birgunj",
      "phone": "051-530800",
      "website": "null",
      "long": 0.0,
      "lat": 0.0
    },
    {
      "name": "Nepalgunj College",
      "address": "Korenpur,Kasturimarg,Nepalgunj",
      "phone": "081522883",
      "website": "http://www.nepalgunjcollege.edu.np/ ",
      "long": 0.0,
      "lat": 0.0
    },
    {
      "name": "Nepathya College",
      "address": "Butwal-10,Rupandehi",
      "phone": "071-541596",
      "website": "http://www.nepathyacollege.edu.np/ ",
      "long": 0.0,
      "lat": 0.0
    },
    {
      "name": "New Summit College",
      "address": "Old Baneshwor,Kathmandu",
      "phone": "014-495201",
      "website": "http://www.newsummit.edu.np/ ",
      "long": 0.0,
      "lat": 0.0
    },
    {
      "name": "Nihareeka College",
      "address": "Biratnagar,Morang",
      "phone": "021-463963",
      "website": "http://nihareekacollege.com/ ",
      "long": 0.0,
      "lat": 0.0
    },
    {
      "name": "NIST College",
      "address": "Kavre",
      "phone": "011-660792",
      "website": "http://www.nist.edu.np/ ",
      "long": 0.0,
      "lat": 0.0
    },
    {
      "name": "Orchid Int'l College",
      "address": "Bijaya chowk,Behind maitinepal,Kathmandu",
      "phone": "01-4479744",
      "website": "http://www.oic.edu.np/ ",
      "long": 0.0,
      "lat": 0.0
    },
    {
      "name": "Patan Multiple Campus",
      "address": "Patandhoka,lalitpur",
      "phone": "015549133",
      "website": "http://www.pmc.edu.np/ ",
      "long": 0.0,
      "lat": 0.0
    },
    {
      "name": "Prime College",
      "address": "NayaBazar,Kathmandu",
      "phone": "014360180",
      "website": "http://www.prime.edu.np/ ",
      "long": 0.0,
      "lat": 0.0
    },
    {
      "name": "RamSwaroop Ramsagar Multiple Campus",
      "address": "JanakpurDham,Dhanusa",
      "phone": "041520174",
      "website": "null",
      "long": 0.0,
      "lat": 0.0
    },
    {
      "name": "Sagarmatha College of Science and Technology",
      "address": "Sanepa,lalitpur",
      "phone": "015527274",
      "website": "http://www.sagarmatha.edu.np/ ",
      "long": 0.0,
      "lat": 0.0
    },
    {
      "name": "Samajik College",
      "address": "Lokanthali,Bhaktapur",
      "phone": "016638497",
      "website": "http://www.samajikcollege.edu.np/ ",
      "long": 0.0,
      "lat": 0.0
    },
    {
      "name": "Samriddhi College",
      "address": "Lokanthali-16,Bhaktapur",
      "phone": "016636700",
      "website": "http://www.samriddhicollege.edu.np/ ",
      "long": 0.0,
      "lat": 0.0
    },
    {
      "name": "Shaheed Smriti Multiple Campus",
      "address": "Ratnanagar,Chitwan",
      "phone": "056-560147",
      "website": "http://www.ssmcchitwan.edu.np/ ",
      "long": 0.0,
      "lat": 0.0
    },
    {
      "name": "Shree Yantra College",
      "address": "Jhapa",
      "phone": "null",
      "website": "null",
      "long": 0.0,
      "lat": 0.0
    },
    {
      "name": "Siddhanath Science Campus",
      "address": "Mahendranagar,Kanchanpur",
      "phone": "099521220",
      "website": "null",
      "long": 0.0,
      "lat": 0.0
    },
    {
      "name": "Soch College of IT",
      "address": "Behind NTC building,Ranipauwa,Pokhara",
      "phone": "061540120",
      "website": "http://www.sochcollege.edu.np/ ",
      "long": 0.0,
      "lat": 0.0
    },
    {
      "name": "St.Lawrence College",
      "address": "Chabahil,pipalbot,Kathmandu",
      "phone": "014-469666",
      "website": "http://www.stlawrence.edu.np/ ",
      "long": 0.0,
      "lat": 0.0
    },
    {
      "name": "St.Xavier's College",
      "address": "Maitighar,Kathmandu",
      "phone": "014-221365",
      "website": "http://www.sxc.edu.np/ ",
      "long": 0.0,
      "lat": 0.0
    },
    {
      "name": "Sushma and Godawari College",
      "address": "Itahari,Sunsari",
      "phone": "025-582712",
      "website": "http://sushmagodawari.edu.np/ ",
      "long": 0.0,
      "lat": 0.0
    },
    {
      "name": "Swastik College",
      "address": "Near TB Hospital,Chardobato,Bhaktapur",
      "phone": "016635174",
      "website": "http://www.swastikcollege.edu.np/ ",
      "long": 0.0,
      "lat": 0.0
    },
    {
      "name": "Texas Int'l College",
      "address": "Mitrapark,Kathmandu",
      "phone": "014-479017",
      "website": "http://www.texasintl.edu.np/ ",
      "long": 0.0,
      "lat": 0.0
    },
    {
      "name": "Tinau Technical College",
      "address": "Janakinagar,,Rupandehi",
      "phone": "071-692790",
      "website": "null",
      "long": 0.0,
      "lat": 0.0
    },
    {
      "name": "Trinity Int'l College",
      "address": "Dillibazar,Kathmandu",
      "phone": "014-445955",
      "website": "http://www.trinitycollege.edu.np/ ",
      "long": 0.0,
      "lat": 0.0
    }
  ]
}